[
  {
    "foto": "imagens/imoveis/imovel-01.jpg",
    "cidade_estado": "São Paulo/SP",
    "endereco": "Rua das Flores, 123",
    "tamanho_m2": 65,
    "quartos": 1,
    "banheiros": 1,
    "preco": 50000,
    "data_leilao": "2026-09-15",
    "latitude": -23.561684,
    "longitude": -46.655981
  },
  {
    "foto": "imagens/imoveis/imovel-02.jpg",
    "cidade_estado": "Rio de Janeiro/RJ",
    "endereco": "Av. Atlântica, 250",
    "tamanho_m2": 80,
    "quartos": 2,
    "banheiros": 1,
    "preco": 60000,
    "data_leilao": "2026-10-02",
    "latitude": -22.967003,
    "longitude": -43.180446
  },
  {
    "foto": "imagens/imoveis/imovel-03.jpg",
    "cidade_estado": "Belo Horizonte/MG",
    "endereco": "Rua Afonso Pena, 450",
    "tamanho_m2": 145,
    "quartos": 3,
    "banheiros": 2,
    "preco": 170000,
    "data_leilao": "2026-11-10",
    "latitude": -19.924501,
    "longitude": -43.937852
  },
  {
    "foto": "imagens/imoveis/imovel-04.jpg",
    "cidade_estado": "Curitiba/PR",
    "endereco": "Rua XV de Novembro, 987",
    "tamanho_m2": 170,
    "quartos": 4,
    "banheiros": 3,
    "preco": 220000,
    "data_leilao": "2026-12-01",
    "latitude": -25.429596,
    "longitude": -49.271272
  },
  {
    "foto": "imagens/imoveis/imovel-05.jpg",
    "cidade_estado": "Salvador/BA",
    "endereco": "Rua do Carmo, 45",
    "tamanho_m2": 72,
    "quartos": 1,
    "banheiros": 1,
    "preco": 55000,
    "data_leilao": "2026-09-25",
    "latitude": -12.971111,
    "longitude": -38.510833
  },
  {
    "foto": "imagens/imoveis/imovel-06.jpg",
    "cidade_estado": "Fortaleza/CE",
    "endereco": "Av. Beira Mar, 1200",
    "tamanho_m2": 95,
    "quartos": 2,
    "banheiros": 1,
    "preco": 60000,
    "data_leilao": "2026-10-18",
    "latitude": -3.718394,
    "longitude": -38.500761
  },
  {
    "foto": "imagens/imoveis/imovel-07.jpg",
    "cidade_estado": "Manaus/AM",
    "endereco": "Rua dos Andradas, 333",
    "tamanho_m2": 110,
    "quartos": 3,
    "banheiros": 2,
    "preco": 100000,
    "data_leilao": "2026-11-22",
    "latitude": -3.130298,
    "longitude": -60.023019
  },
  {
    "foto": "imagens/imoveis/imovel-08.jpg",
    "cidade_estado": "Porto Alegre/RS",
    "endereco": "Av. Ipiranga, 789",
    "tamanho_m2": 198,
    "quartos": 4,
    "banheiros": 3,
    "preco": 300000,
    "data_leilao": "2026-12-15",
    "latitude": -30.044420,
    "longitude": -51.208515
  },
  {
    "foto": "imagens/imoveis/imovel-09.jpg",
    "cidade_estado": "Recife/PE",
    "endereco": "Rua Boa Vista, 55",
    "tamanho_m2": 70,
    "quartos": 1,
    "banheiros": 1,
    "preco": 40000,
    "data_leilao": "2026-09-28",
    "latitude": -8.062579,
    "longitude": -34.871111
  },
  {
    "foto": "imagens/imoveis/imovel-10.jpg",
    "cidade_estado": "Florianópolis/SC",
    "endereco": "Rua das Gaivotas, 320",
    "tamanho_m2": 130,
    "quartos": 3,
    "banheiros": 2,
    "preco": 100000,
    "data_leilao": "2026-11-05",
    "latitude": -27.594870,
    "longitude": -48.548219
  },
  {
    "foto": "imagens/imoveis/imovel-11.jpg",
    "cidade_estado": "Goiânia/GO",
    "endereco": "Av. Anhanguera, 999",
    "tamanho_m2": 85,
    "quartos": 2,
    "banheiros": 1,
    "preco": 70000,
    "data_leilao": "2026-10-12",
    "latitude": -16.678611,
    "longitude": -49.253889
  },
  {
    "foto": "imagens/imoveis/imovel-12.jpg",
    "cidade_estado": "Vitória/ES",
    "endereco": "Rua Sete, 45",
    "tamanho_m2": 155,
    "quartos": 4,
    "banheiros": 3,
    "preco": 120000,
    "data_leilao": "2026-12-20",
    "latitude": -20.3155,
    "longitude": -40.3128
  },
  {
    "foto": "imagens/imoveis/imovel-13.jpg",
    "cidade_estado": "Campinas/SP",
    "endereco": "Rua Barão de Jaguara, 321",
    "tamanho_m2": 60,
    "quartos": 1,
    "banheiros": 1,
    "preco": 30000,
    "data_leilao": "2026-09-19",
    "latitude": -22.90556,
    "longitude": -47.06083
  },
  {
    "foto": "imagens/imoveis/imovel-14.jpg",
    "cidade_estado": "Natal/RN",
    "endereco": "Av. Roberto Freire, 455",
    "tamanho_m2": 100,
    "quartos": 2,
    "banheiros": 1,
    "preco": 75000,
    "data_leilao": "2026-10-30",
    "latitude": -5.79448,
    "longitude": -35.211
  },
  {
    "foto": "imagens/imoveis/imovel-15.jpg",
    "cidade_estado": "Belém/PA",
    "endereco": "Rua da Paz, 600",
    "tamanho_m2": 120,
    "quartos": 3,
    "banheiros": 2,
    "preco": 120000,
    "data_leilao": "2026-11-17",
    "latitude": -1.455833,
    "longitude": -48.503889
  },
  {
    "foto": "imagens/imoveis/imovel-16.jpg",
    "cidade_estado": "Florianópolis/SC",
    "endereco": "Rua dos Remédios, 720",
    "tamanho_m2": 160,
    "quartos": 4,
    "banheiros": 3,
    "preco": 210000,
    "data_leilao": "2026-12-08",
    "latitude": -27.595377,
    "longitude": -48.548049
  },
  {
    "foto": "imagens/imoveis/imovel-17.jpg",
    "cidade_estado": "São Paulo/SP",
    "endereco": "Av. Cabo Branco, 88",
    "tamanho_m2": 78,
    "quartos": 2,
    "banheiros": 1,
    "preco": 55000,
    "data_leilao": "2026-09-29",
    "latitude": -23.563987,
    "longitude": -46.654321
  },
  {
    "foto": "imagens/imoveis/imovel-18.jpg",
    "cidade_estado": "Rio de Janeiro/RJ",
    "endereco": "Rua Pajuçara, 180",
    "tamanho_m2": 138,
    "quartos": 3,
    "banheiros": 2,
    "preco": 130000,
    "data_leilao": "2026-11-02",
    "latitude": -22.908333,
    "longitude": -43.196388
  },
  {
    "foto": "imagens/imoveis/imovel-19.jpg",
    "cidade_estado": "Campo Grande/MS",
    "endereco": "Av. Afonso Pena, 1900",
    "tamanho_m2": 200,
    "quartos": 4,
    "banheiros": 3,
    "preco": 200000,
    "data_leilao": "2026-12-25",
    "latitude": -20.448333,
    "longitude": -54.629444
  },
  {
    "foto": "imagens/imoveis/imovel-20.jpg",
    "cidade_estado": "São Paulo/SP",
    "endereco": "Rua da Aurora, 301",
    "tamanho_m2": 55,
    "quartos": 1,
    "banheiros": 1,
    "preco": 25000,
    "data_leilao": "2026-09-20",
    "latitude": -23.558432,
    "longitude": -46.642123
  }
]
